{
"type": "FeatureCollection",
"name": "Skateboard_Parks",
"crs": { "type": "name", "properties": { "name": "urn:ogc:def:crs:OGC:1.3:CRS84" } },
"features": [
{ "type": "Feature", "properties": { "OBJECTID": 0, "PARK_ID": 0, "FACILITYID": 28004, "NAME": "Ik kan schoffelen ",  "DESCRIPTION": "schoffelen",  "PICTURE_LINK": "https://www.greentocolour.com/wp-content/uploads/2018/04/GreentoColour-schoffelen.jpg", "PICTURE_DESCRIPTION": null }, "geometry": { "type": "Point", "coordinates": [51.9226212701451, 4.251799060783642 ] } },
{ "type": "Feature", "properties": { "OBJECTID": 2, "PARK_ID": 2, "FACILITYID": 35815, "NAME": "Ik kan scheppen", "DESCRIPTION": "scheppen", "PICTURE_LINK":"https://www.detectordirect.nl/data/upload/Shop/images/schaufel-model2.jpg" , "PICTURE_DESCRIPTION": null }, "geometry": { "type": "Point", "coordinates": [ 51.91329339343555, 4.36160724129712 ] } },
{ "type": "Feature", "properties": { "OBJECTID": 4, "PARK_ID": 4, "FACILITYID": 35667, "NAME": "Ik kan harken", "DESCRIPTION": "harken", "PICTURE_LINK": "https://www.dewiltfang.nl/_clientfiles/blad_grasharken.jpg", "PICTURE_DESCRIPTION": null }, "geometry": { "type": "Point", "coordinates": [ 51.893399, 4.505062 ] } },
{ "type": "Feature", "properties": { "OBJECTID": 5, "PARK_ID": 5, "FACILITYID": 35120, "NAME": "Ik kan verschillende gieters gebruiken", "DESCRIPTION": "gieters", "PICTURE_LINK": "https://www.tuinadvies.nl/shop/foto/sizes/gieter_zink_ovaal_10_l_1575185788_1-600.jpg", "PICTURE_DESCRIPTION": null}, "geometry": { "type": "Point", "coordinates": [ 51.87433871838726, 4.6068674159855485 ] } },
{ "type": "Feature", "properties": { "OBJECTID": 6, "PARK_ID": 6, "FACILITYID": 28019, "NAME": "Ik kan een graafmachine bedienen", "DESCRIPTION": "graafmachine bedienen","PICTURE_LINK": "https://www.takeuchibenelux.com/wp-content/uploads/2019/04/minigraver-kopen-takeuchi-tb-3-e1566554682288-776x300.jpg", "PICTURE_DESCRIPTION": null }, "geometry": { "type": "Point", "coordinates": [ 51.81787573570993, 4.680511221790116 ] } },
{ "type": "Feature", "properties": { "OBJECTID": 3, "PARK_ID": 3, "FACILITYID": 28017, "NAME": "Ik kan bomen omhakken", "DESCRIPTION": "bomen omhakken",  "PICTURE_LINK": "https://www.elifix.nl/view/images/editor/368/boom_kappen.jpg", "PICTURE_DESCRIPTION": null }, "geometry": { "type": "Point", "coordinates": [ 51.93317821055798, 4.445678286036353] } }

]
}
